var stations2_json = {
  "type": "FeatureCollection",
  "features": [
    {
      "type": "Feature",
      "properties": {
        "Station_Name": "Atlantic Av-Barclays Ctr",
        "Entrance_Type": "Elevator"
      },
      "geometry": {
        "type": "Point",
        "coordinates": [
          -73.97881,
          40.683666
        ]
      }
    },
    {
      "type": "Feature",
      "properties": {
        "Station_Name": "Pacific St",
        "Entrance_Type": "Stair"
      },
      "geometry": {
        "type": "Point",
        "coordinates": [
          -73.97881,
          40.683666
        ]
      }
    },
    {
      "type": "Feature",
      "properties": {
        "Station_Name": "Times Square",
        "Entrance_Type": "Stair"
      },
      "geometry": {
        "type": "Point",
        "coordinates": [
          -73.986229,
          40.755983
        ]
      }
    },
    {
      "type": "Feature",
      "properties": {
        "Station_Name": "14th St",
        "Entrance_Type": "Stair"
      },
      "geometry": {
        "type": "Point",
        "coordinates": [
          -73.996209,
          40.738228
        ]
      }
    },
    {
      "type": "Feature",
      "properties": {
        "Station_Name": "42nd St",
        "Entrance_Type": "Easement"
      },
      "geometry": {
        "type": "Point",
        "coordinates": [
          -73.989735,
          40.757308
        ]
      }
    },
    {
      "type": "Feature",
      "properties": {
        "Station_Name": "42nd St",
        "Entrance_Type": "Stair"
      },
      "geometry": {
        "type": "Point",
        "coordinates": [
          -73.989735,
          40.757308
        ]
      }
    },
    {
      "type": "Feature",
      "properties": {
        "Station_Name": "Broadway-Nassau",
        "Entrance_Type": "Easement"
      },
      "geometry": {
        "type": "Point",
        "coordinates": [
          -74.007691,
          40.710197
        ]
      }
    },
    {
      "type": "Feature",
      "properties": {
        "Station_Name": "Chambers St",
        "Entrance_Type": "Stair"
      },
      "geometry": {
        "type": "Point",
        "coordinates": [
          -74.008585,
          40.714111
        ]
      }
    },
    {
      "type": "Feature",
      "properties": {
        "Station_Name": "High St",
        "Entrance_Type": "Stair"
      },
      "geometry": {
        "type": "Point",
        "coordinates": [
          -73.990531,
          40.699337
        ]
      }
    },
    {
      "type": "Feature",
      "properties": {
        "Station_Name": "World Trade Center",
        "Entrance_Type": "Stair"
      },
      "geometry": {
        "type": "Point",
        "coordinates": [
          -74.009781,
          40.712582
        ]
      }
    },
    {
      "type": "Feature",
      "properties": {
        "Station_Name": "Atlantic Av",
        "Entrance_Type": "Easement"
      },
      "geometry": {
        "type": "Point",
        "coordinates": [
          -73.97689,
          40.68446
        ]
      }
    },
    {
      "type": "Feature",
      "properties": {
        "Station_Name": "Court St",
        "Entrance_Type": "Stair"
      },
      "geometry": {
        "type": "Point",
        "coordinates": [
          -73.991777,
          40.6941
        ]
      }
    },
    {
      "type": "Feature",
      "properties": {
        "Station_Name": "Times Square-42nd St",
        "Entrance_Type": "Stair"
      },
      "geometry": {
        "type": "Point",
        "coordinates": [
          -73.986754,
          40.754672
        ]
      }
    },
    {
      "type": "Feature",
      "properties": {
        "Station_Name": "14th St",
        "Entrance_Type": "Stair"
      },
      "geometry": {
        "type": "Point",
        "coordinates": [
          -74.000201,
          40.737826
        ]
      }
    },
    {
      "type": "Feature",
      "properties": {
        "Station_Name": "34th St",
        "Entrance_Type": "Easement"
      },
      "geometry": {
        "type": "Point",
        "coordinates": [
          -73.991057,
          40.750373
        ]
      }
    },
    {
      "type": "Feature",
      "properties": {
        "Station_Name": "34th St",
        "Entrance_Type": "Stair"
      },
      "geometry": {
        "type": "Point",
        "coordinates": [
          -73.991057,
          40.750373
        ]
      }
    },
    {
      "type": "Feature",
      "properties": {
        "Station_Name": "72nd St",
        "Entrance_Type": "Door"
      },
      "geometry": {
        "type": "Point",
        "coordinates": [
          -73.98197,
          40.778453
        ]
      }
    },
    {
      "type": "Feature",
      "properties": {
        "Station_Name": "96th St",
        "Entrance_Type": "Door"
      },
      "geometry": {
        "type": "Point",
        "coordinates": [
          -73.972323,
          40.793919
        ]
      }
    },
    {
      "type": "Feature",
      "properties": {
        "Station_Name": "96th St",
        "Entrance_Type": "Stair"
      },
      "geometry": {
        "type": "Point",
        "coordinates": [
          -73.972323,
          40.793919
        ]
      }
    },
    {
      "type": "Feature",
      "properties": {
        "Station_Name": "Chambers St",
        "Entrance_Type": "Stair"
      },
      "geometry": {
        "type": "Point",
        "coordinates": [
          -74.009266,
          40.715478
        ]
      }
    },
    {
      "type": "Feature",
      "properties": {
        "Station_Name": "Times Square",
        "Entrance_Type": "Easement"
      },
      "geometry": {
        "type": "Point",
        "coordinates": [
          -73.987495,
          40.75529
        ]
      }
    },
    {
      "type": "Feature",
      "properties": {
        "Station_Name": "Times Square",
        "Entrance_Type": "Stair"
      },
      "geometry": {
        "type": "Point",
        "coordinates": [
          -73.987495,
          40.75529
        ]
      }
    },
    {
      "type": "Feature",
      "properties": {
        "Station_Name": "6th Av",
        "Entrance_Type": "Stair"
      },
      "geometry": {
        "type": "Point",
        "coordinates": [
          -73.996786,
          40.737335
        ]
      }
    },
    {
      "type": "Feature",
      "properties": {
        "Station_Name": "Borough Hall",
        "Entrance_Type": "Elevator"
      },
      "geometry": {
        "type": "Point",
        "coordinates": [
          -73.989998,
          40.693219
        ]
      }
    },
    {
      "type": "Feature",
      "properties": {
        "Station_Name": "Borough Hall",
        "Entrance_Type": "Stair"
      },
      "geometry": {
        "type": "Point",
        "coordinates": [
          -73.989998,
          40.693219
        ]
      }
    },
    {
      "type": "Feature",
      "properties": {
        "Station_Name": "Clark St",
        "Entrance_Type": "Door"
      },
      "geometry": {
        "type": "Point",
        "coordinates": [
          -73.993086,
          40.697466
        ]
      }
    },
    {
      "type": "Feature",
      "properties": {
        "Station_Name": "Fulton St",
        "Entrance_Type": "Stair"
      },
      "geometry": {
        "type": "Point",
        "coordinates": [
          -74.006571,
          40.709416
        ]
      }
    },
    {
      "type": "Feature",
      "properties": {
        "Station_Name": "Fulton St",
        "Entrance_Type": "Easement"
      },
      "geometry": {
        "type": "Point",
        "coordinates": [
          -74.006571,
          40.709416
        ]
      }
    },
    {
      "type": "Feature",
      "properties": {
        "Station_Name": "Park Place",
        "Entrance_Type": "Stair"
      },
      "geometry": {
        "type": "Point",
        "coordinates": [
          -74.008811,
          40.713051
        ]
      }
    },
    {
      "type": "Feature",
      "properties": {
        "Station_Name": "Wall St",
        "Entrance_Type": "Stair"
      },
      "geometry": {
        "type": "Point",
        "coordinates": [
          -74.0091,
          40.706821
        ]
      }
    },
    {
      "type": "Feature",
      "properties": {
        "Station_Name": "Wall St",
        "Entrance_Type": "Easement"
      },
      "geometry": {
        "type": "Point",
        "coordinates": [
          -74.0091,
          40.706821
        ]
      }
    },
    {
      "type": "Feature",
      "properties": {
        "Station_Name": "Atlantic Av-Barclays Ctr",
        "Entrance_Type": "Easement"
      },
      "geometry": {
        "type": "Point",
        "coordinates": [
          -73.977666,
          40.684359
        ]
      }
    },
    {
      "type": "Feature",
      "properties": {
        "Station_Name": "Bergen St",
        "Entrance_Type": "Stair"
      },
      "geometry": {
        "type": "Point",
        "coordinates": [
          -73.975098,
          40.680829
        ]
      }
    },
    {
      "type": "Feature",
      "properties": {
        "Station_Name": "Eastern Parkway-Brooklyn Museum",
        "Entrance_Type": "Stair"
      },
      "geometry": {
        "type": "Point",
        "coordinates": [
          -73.964375,
          40.671987
        ]
      }
    },
    {
      "type": "Feature",
      "properties": {
        "Station_Name": "Franklin Av",
        "Entrance_Type": "Stair"
      },
      "geometry": {
        "type": "Point",
        "coordinates": [
          -73.958131,
          40.670682
        ]
      }
    },
    {
      "type": "Feature",
      "properties": {
        "Station_Name": "Grand Army Plaza",
        "Entrance_Type": "Stair"
      },
      "geometry": {
        "type": "Point",
        "coordinates": [
          -73.971046,
          40.675235
        ]
      }
    },
    {
      "type": "Feature",
      "properties": {
        "Station_Name": "Hoyt St",
        "Entrance_Type": "Stair"
      },
      "geometry": {
        "type": "Point",
        "coordinates": [
          -73.985065,
          40.690545
        ]
      }
    },
    {
      "type": "Feature",
      "properties": {
        "Station_Name": "Nevins St",
        "Entrance_Type": "Stair"
      },
      "geometry": {
        "type": "Point",
        "coordinates": [
          -73.980492,
          40.688246
        ]
      }
    },
    {
      "type": "Feature",
      "properties": {
        "Station_Name": "Botanic Gardens",
        "Entrance_Type": "Stair"
      },
      "geometry": {
        "type": "Point",
        "coordinates": [
          -73.959245,
          40.670343
        ]
      }
    },
    {
      "type": "Feature",
      "properties": {
        "Station_Name": "149th St-Grand Concourse",
        "Entrance_Type": "Stair"
      },
      "geometry": {
        "type": "Point",
        "coordinates": [
          -73.927351,
          40.818375
        ]
      }
    },
    {
      "type": "Feature",
      "properties": {
        "Station_Name": "110th St-Central Park North",
        "Entrance_Type": "Stair"
      },
      "geometry": {
        "type": "Point",
        "coordinates": [
          -73.951822,
          40.799075
        ]
      }
    },
    {
      "type": "Feature",
      "properties": {
        "Station_Name": "116th St",
        "Entrance_Type": "Stair"
      },
      "geometry": {
        "type": "Point",
        "coordinates": [
          -73.949625,
          40.802098
        ]
      }
    },
    {
      "type": "Feature",
      "properties": {
        "Station_Name": "125th St",
        "Entrance_Type": "Stair"
      },
      "geometry": {
        "type": "Point",
        "coordinates": [
          -73.945495,
          40.807754
        ]
      }
    },
    {
      "type": "Feature",
      "properties": {
        "Station_Name": "135th St",
        "Entrance_Type": "Stair"
      },
      "geometry": {
        "type": "Point",
        "coordinates": [
          -73.94077,
          40.814229
        ]
      }
    },
    {
      "type": "Feature",
      "properties": {
        "Station_Name": "Borough Hall",
        "Entrance_Type": "Stair"
      },
      "geometry": {
        "type": "Point",
        "coordinates": [
          -73.990151,
          40.692404
        ]
      }
    },
    {
      "type": "Feature",
      "properties": {
        "Station_Name": "Fulton St",
        "Entrance_Type": "Stair"
      },
      "geometry": {
        "type": "Point",
        "coordinates": [
          -74.009509,
          40.710368
        ]
      }
    },
    {
      "type": "Feature",
      "properties": {
        "Station_Name": "Fulton St",
        "Entrance_Type": "Easement"
      },
      "geometry": {
        "type": "Point",
        "coordinates": [
          -74.009509,
          40.710368
        ]
      }
    },
    {
      "type": "Feature",
      "properties": {
        "Station_Name": "Fulton St",
        "Entrance_Type": "Easement"
      },
      "geometry": {
        "type": "Point",
        "coordinates": [
          -74.007582,
          40.710374
        ]
      }
    },
    {
      "type": "Feature",
      "properties": {
        "Station_Name": "Fulton St",
        "Entrance_Type": "Stair"
      },
      "geometry": {
        "type": "Point",
        "coordinates": [
          -74.007582,
          40.710374
        ]
      }
    },
    {
      "type": "Feature",
      "properties": {
        "Station_Name": "Beverly Rd",
        "Entrance_Type": "Stair"
      },
      "geometry": {
        "type": "Point",
        "coordinates": [
          -73.948959,
          40.645098
        ]
      }
    },
    {
      "type": "Feature",
      "properties": {
        "Station_Name": "Church Av",
        "Entrance_Type": "Elevator"
      },
      "geometry": {
        "type": "Point",
        "coordinates": [
          -73.949575,
          40.650843
        ]
      }
    },
    {
      "type": "Feature",
      "properties": {
        "Station_Name": "Church Av",
        "Entrance_Type": "Stair"
      },
      "geometry": {
        "type": "Point",
        "coordinates": [
          -73.949575,
          40.650843
        ]
      }
    },
    {
      "type": "Feature",
      "properties": {
        "Station_Name": "Flatbush Av-Brooklyn College",
        "Entrance_Type": "Elevator"
      },
      "geometry": {
        "type": "Point",
        "coordinates": [
          -73.947642,
          40.632836
        ]
      }
    },
    {
      "type": "Feature",
      "properties": {
        "Station_Name": "Flatbush Av-Brooklyn College",
        "Entrance_Type": "Stair"
      },
      "geometry": {
        "type": "Point",
        "coordinates": [
          -73.947642,
          40.632836
        ]
      }
    },
    {
      "type": "Feature",
      "properties": {
        "Station_Name": "Newkirk Av",
        "Entrance_Type": "Stair"
      },
      "geometry": {
        "type": "Point",
        "coordinates": [
          -73.948411,
          40.639967
        ]
      }
    },
    {
      "type": "Feature",
      "properties": {
        "Station_Name": "President St",
        "Entrance_Type": "Stair"
      },
      "geometry": {
        "type": "Point",
        "coordinates": [
          -73.950683,
          40.667883
        ]
      }
    },
    {
      "type": "Feature",
      "properties": {
        "Station_Name": "Sterling St",
        "Entrance_Type": "Stair"
      },
      "geometry": {
        "type": "Point",
        "coordinates": [
          -73.95085,
          40.662742
        ]
      }
    },
    {
      "type": "Feature",
      "properties": {
        "Station_Name": "Winthrop St",
        "Entrance_Type": "Stair"
      },
      "geometry": {
        "type": "Point",
        "coordinates": [
          -73.9502,
          40.656652
        ]
      }
    },
    {
      "type": "Feature",
      "properties": {
        "Station_Name": "149th St-3rd Av",
        "Entrance_Type": "Elevator"
      },
      "geometry": {
        "type": "Point",
        "coordinates": [
          -73.917757,
          40.816109
        ]
      }
    },
    {
      "type": "Feature",
      "properties": {
        "Station_Name": "149th St-3rd Av",
        "Entrance_Type": "Stair"
      },
      "geometry": {
        "type": "Point",
        "coordinates": [
          -73.917757,
          40.816109
        ]
      }
    },
    {
      "type": "Feature",
      "properties": {
        "Station_Name": "174th St",
        "Entrance_Type": "Stair"
      },
      "geometry": {
        "type": "Point",
        "coordinates": [
          -73.887734,
          40.837288
        ]
      }
    },
    {
      "type": "Feature",
      "properties": {
        "Station_Name": "219th St",
        "Entrance_Type": "Stair"
      },
      "geometry": {
        "type": "Point",
        "coordinates": [
          -73.862633,
          40.883895
        ]
      }
    },
    {
      "type": "Feature",
      "properties": {
        "Station_Name": "225th St",
        "Entrance_Type": "Stair"
      },
      "geometry": {
        "type": "Point",
        "coordinates": [
          -73.860341,
          40.888022
        ]
      }
    },
    {
      "type": "Feature",
      "properties": {
        "Station_Name": "233rd St",
        "Entrance_Type": "Stair"
      },
      "geometry": {
        "type": "Point",
        "coordinates": [
          -73.857473,
          40.893193
        ]
      }
    },
    {
      "type": "Feature",
      "properties": {
        "Station_Name": "238th St-Nereid Av",
        "Entrance_Type": "Stair"
      },
      "geometry": {
        "type": "Point",
        "coordinates": [
          -73.854376,
          40.898379
        ]
      }
    },
    {
      "type": "Feature",
      "properties": {
        "Station_Name": "Allerton Av",
        "Entrance_Type": "Stair"
      },
      "geometry": {
        "type": "Point",
        "coordinates": [
          -73.867352,
          40.865462
        ]
      }
    },
    {
      "type": "Feature",
      "properties": {
        "Station_Name": "Bronx Park East",
        "Entrance_Type": "Stair"
      },
      "geometry": {
        "type": "Point",
        "coordinates": [
          -73.868457,
          40.848828
        ]
      }
    },
    {
      "type": "Feature",
      "properties": {
        "Station_Name": "Burke Av",
        "Entrance_Type": "Stair"
      },
      "geometry": {
        "type": "Point",
        "coordinates": [
          -73.867164,
          40.871356
        ]
      }
    },
    {
      "type": "Feature",
      "properties": {
        "Station_Name": "East 180th St",
        "Entrance_Type": "Door"
      },
      "geometry": {
        "type": "Point",
        "coordinates": [
          -73.873488,
          40.841894
        ]
      }
    },
    {
      "type": "Feature",
      "properties": {
        "Station_Name": "East Tremont Av-West Farms Sq",
        "Entrance_Type": "Escalator"
      },
      "geometry": {
        "type": "Point",
        "coordinates": [
          -73.880049,
          40.840295
        ]
      }
    },
    {
      "type": "Feature",
      "properties": {
        "Station_Name": "East Tremont Av-West Farms Sq",
        "Entrance_Type": "Stair"
      },
      "geometry": {
        "type": "Point",
        "coordinates": [
          -73.880049,
          40.840295
        ]
      }
    },
    {
      "type": "Feature",
      "properties": {
        "Station_Name": "Freeman St",
        "Entrance_Type": "Stair"
      },
      "geometry": {
        "type": "Point",
        "coordinates": [
          -73.891865,
          40.829993
        ]
      }
    },
    {
      "type": "Feature",
      "properties": {
        "Station_Name": "Gun Hill Rd",
        "Entrance_Type": "Door"
      },
      "geometry": {
        "type": "Point",
        "coordinates": [
          -73.866256,
          40.87785
        ]
      }
    },
    {
      "type": "Feature",
      "properties": {
        "Station_Name": "Gun Hill Rd",
        "Entrance_Type": "Stair"
      },
      "geometry": {
        "type": "Point",
        "coordinates": [
          -73.866256,
          40.87785
        ]
      }
    },
    {
      "type": "Feature",
      "properties": {
        "Station_Name": "Intervale Av",
        "Entrance_Type": "Escalator"
      },
      "geometry": {
        "type": "Point",
        "coordinates": [
          -73.896736,
          40.822181
        ]
      }
    },
    {
      "type": "Feature",
      "properties": {
        "Station_Name": "Intervale Av",
        "Entrance_Type": "Stair"
      },
      "geometry": {
        "type": "Point",
        "coordinates": [
          -73.896736,
          40.822181
        ]
      }
    },
    {
      "type": "Feature",
      "properties": {
        "Station_Name": "Jackson Av",
        "Entrance_Type": "Stair"
      },
      "geometry": {
        "type": "Point",
        "coordinates": [
          -73.907807,
          40.81649
        ]
      }
    },
    {
      "type": "Feature",
      "properties": {
        "Station_Name": "Pelham Parkway",
        "Entrance_Type": "Escalator"
      },
      "geometry": {
        "type": "Point",
        "coordinates": [
          -73.867615,
          40.857192
        ]
      }
    },
    {
      "type": "Feature",
      "properties": {
        "Station_Name": "Pelham Parkway",
        "Entrance_Type": "Stair"
      },
      "geometry": {
        "type": "Point",
        "coordinates": [
          -73.867615,
          40.857192
        ]
      }
    },
    {
      "type": "Feature",
      "properties": {
        "Station_Name": "Prospect Av",
        "Entrance_Type": "Stair"
      },
      "geometry": {
        "type": "Point",
        "coordinates": [
          -73.90177,
          40.819585
        ]
      }
    },
    {
      "type": "Feature",
      "properties": {
        "Station_Name": "Simpson St",
        "Entrance_Type": "Elevator"
      },
      "geometry": {
        "type": "Point",
        "coordinates": [
          -73.893064,
          40.824073
        ]
      }
    },
    {
      "type": "Feature",
      "properties": {
        "Station_Name": "Simpson St",
        "Entrance_Type": "Stair"
      },
      "geometry": {
        "type": "Point",
        "coordinates": [
          -73.893064,
          40.824073
        ]
      }
    },
    {
      "type": "Feature",
      "properties": {
        "Station_Name": "Wakefield-241st St",
        "Entrance_Type": "Stair"
      },
      "geometry": {
        "type": "Point",
        "coordinates": [
          -73.85062,
          40.903125
        ]
      }
    }
  ]
}